{
  "Locations": [
    {
      "name": "Chicago",
      "Attractions": [
        {
          "name": "Shedd Aquarium",
          "Categories": [
            "Animals",
            "Family Friendly",
            "Daytime",
            "Educational"            
          ],
          "Price": 3,
          "Location": "Downtown",
          "gem": false,
          "link": null,
          "latitude": 41.8676,
          "longitude": 87.6140
        },
        {
          "name": "Lurie Garden",
          "Categories": [
            "Nature"        
          ],
          "Price": 3,
          "Location": "Downtown",
          "id": 26,
          "gem": false,
          "link": "https://www.publicgardens.org/sites/default/files/styles/1000x400_garden_image/public/images/Garden/Lurie%20Garden.jpg?itok=clGZJXIH",
          "latitude": 41.8676,
          "longitude": 87.6140
        },
        {
          "name": "Willis Tower",
          "Categories": [
            "Family Friendly",
            "Daytime",
            "Landmark",
            "View"
          ],
          "Price": 3,
          "Location": "Downtown",
          "gem": false,
          "link": null,
          "latitude": 41.8789,
          "longitude": 87.6359
        },
        {
          "name": "Field Museum",
          "Categories": [
            "Family Friendly",
            "Daytime",
            "Educational",
            "History",
            "Science"
          ],
          "Price": 2,
          "Location": "Downtown",
          "gem": false,
          "link": null,
          "latitude": 41.8663,
          "longitude": 87.6170
        },
        {
          "name": "Wrigley Field",
          "Categories": [
            "Family Friendly",
            "Daytime",
            "Sports",
            "Baseball"
          ],
          "Price": 4,
          "Location": "Wrigleyville",
          "gem": false,
          "link": null,
          "latitude": 41.9484,
          "longitude": 87.6553
        },
        {
          "name": "Millenium Park",
          "Categories": [
            "Animals",
            "Family Friendly",
            "Daytime",
            "Educational",
            "Pet Friendly"
          ],
          "Price": 1,
          "Location": "Downtown",
          "gem": false,
          "link": null,
          "latitude": 41.8826,
          "longitude": 87.6226
        },
        {
          "name": "Sky Deck Chicago",
          "Categories": [
            "Casual Tourist",
            "Family Friendly",
            "Daytime",
            "Educational",
            "Pet Friendly"
          ],
          "Price": 2,
          "Location": "Downtown",
          "gem": false,
          "link": null,
          "latitude": 41.8789,
          "longitude": 87.6359
        },
        {
          "name": "Jay Pritzker Pavillion",
          "Categories": [
            "Animals",
            "Family Friendly",
            "Daytime",
            "Educational",
            "Night",
            "Music",
            "Pet Friendly"
          ],
          "Price": 2,
          "Location": "Downtown",
          "gem": false,
          "link": null,
          "latitude": 41.8832,
          "longitude": 87.6219
        },
        {
          "name": "Chicago River Cruise",
          "Categories": [
            "Family Friendly",
            "Daytime",
            "Educational"
          ],
          "Price": 4,
          "Location": "Downtown",
          "gem": false,
          "link": null,
          "latitude": 41.8905,
          "longitude": 87.6162
        }
      ],
      "Restaurants": [
        {
          "name": "Giordano",
          "Categories": [
            "Pizza",
            "Italian",
            "Hearty",
            "Deep-Dish",
            "Dine-in",
            "Family Friendly"
          ],
          "Price": 2,
          "Location": "Downtown",
          "gem": false,
          "link": null,
          "latitude": 41.8925,
          "longitude": 87.6162
        },
        {
          "name": "Alinea",
          "Categories": [
            "Fine Dining",
            "Experimental",
            "Michelin",
            "Hip"
          ],
          "Price": 5,
          "Location": "Old Town",
          "gem": false,
          "link": null,
          "latitude": 41.9183,
          "longitude": 87.6439
        },
        {
          "name": "Ramen Takeya",
          "Categories": [
            "Small Plates",
            "Japanese",
            "Fusion"
          ],
          "Price": 3,
          "Location": "West Loop",
          "gem": false,
          "link": null,
          "latitude": 41.8764,
          "longitude": 87.6507
        },
        {
          "name": "Gibsons Steakhouse",
          "Categories": [
            "Steakhouse",
            "Fine"
          ],
          "Price": 5,
          "Location": "Downtown",
          "gem": false,
          "link": null,
          "latitude": 41.9014,
          "longitude": 87.6279
        }
      ]
    },
    {
      "name": "Paris",
      "Attractions": [
        {
          "name": "Paris Underground Street Art Tour",
          "Categories": [
            "art"
          ],
          "Price": 2,
          "Location": "Belleville",
          "id": 0,
          "gem": true,
          "link": "https://thebigbus.com.au/paris-self-guided-walking-tour-of-belleville/",
          "website": "The Big Bus",
          "coordinates": {
            "latitude": 48.8721,
            "longitude": 2.3770
          }
        },
        {
          "name": "Paris Catacombs",
          "Categories": [
            "history",
            "sci-fi"
          ],
          "Price": 2,
          "Location": "Ile-de-France",
          "id": 1,
          "gem": true,
          "link": "https://www.discoverwalks.com/blog/how-to-visit-the-paris-catacombs/",
          "website": "Discover Walks",
          "coordinates": {
            "latitude": 48.8340,
            "longitude": 2.3324
          }
        },
        {
          "name": "Rue Cremieux",
          "Categories": [
            "gardening",
            "art",
            "iconic sites",
            "architecture"
          ],
          "Price": 0,
          "Location": "Ile-de-France",
          "id": 2,
          "gem": true,
          "link": "https://lorilovesparis.com/hidden-places-see-paris-rue-cremieux/",
          "website": "Lori Loves Paris",
          "coordinates": {
            "latitude": 48.8468,
            "longitude": 2.3706
          }
        },
        {
          "name": "Musee des Egouts de Paris",
          "Categories": [
            "history",
            "contemporary fiction",
            "museums"
          ],
          "Price": 1,
          "Location": "N/A",
          "id": 3,
          "gem": true,
          "link": "https://www.introducingparis.com/sewers-museum",
          "website": "Introducing Paris",
          "coordinates": {
            "latitude": 48.8627,
            "longitude": 2.3110
          }
        },
        {
          "name": "Le Marais",
          "Categories": [
            "photography",
            "history",
            "shopping"
          ],
          "Price": 1,
          "Location": "N/A",
          "id": 4,
          "gem": true,
          "link": "https://www.solosophie.com/a-guide-to-le-marais/",
          "website": "Solo Sophie",
          "coordinates": {
            "latitude": 48.8587,
            "longitude": 2.3588
          }
        },
        {
          "name": "Atelier des Lumieres",
          "Categories": [
            "mysteries",
            "art",
            "moderate physical activity"
          ],
          "Price": 1,
          "Location": "N/A",
          "id": 5,
          "gem": true,
          "link": "https://www.sortiraparis.com/arts-culture/exposure/articles/156707-the-atelier-des-lumieres-paris-first-digital-art-center/lang/en",
          "website": "Sortira Paris",
          "coordinates": {
            "latitude": 48.8616,
            "longitude": 2.3808
          }
        },
        {
          "name": "Gorges d'Apremont Hike",
          "Categories": [
            "landscapes",
            "high physical activity"
          ],
          "Price": 1,
          "Location": "N/A",
          "id": 6,
          "gem": true,
          "link": "http://mamalovesparis.com/discover-outside-paris/",
          "website": "Mama Loves Paris",
          "coordinates": {
            "latitude": 48.4298,
            "longitude": 2.6376
          }
        },
        {
          "name": "Parc Villette",
          "Categories": [
            "contemporary literature",
            "rural escapes"
          ],
          "Price": 1,
          "Location": "N/A",
          "id": 7,
          "gem": true,
          "link": "http://worldtoptop.com/parc-de-la-villette/",
          "website": "World Top Top",
          "coordinates": {
            "latitude": 48.8938,
            "longitude": 2.3903
          }
        },
        {
          "name": "La Centquatre",
          "Categories": [
            "art",
            "moderate physical activity",
            "history"
          ],
          "Price": 1,
          "Location": "N/A",
          "id": 8,
          "gem": true,
          "link": "http://mamalovesparis.com/le-centquatre-paris/",
          "website": "Mama Loves Paris",
          "coordinates": {
            "latitude": 48.8905,
            "longitude": 2.3686
          }
        },
        {
          "name": "Museum National d'Histoire Naturelle",
          "Categories": [
            "history",
            "museums",
            "architecture"
          ],
          "Price": 1,
          "Location": "N/A",
          "id": 9,
          "gem": true,
          "link": "https://www.lonelyplanet.com/france/paris/attractions/museum-national-d-histoire-naturelle/a/poi-sig/372459/359279",
          "website": "Lonely Planet",
          "coordinates": {
            "latitude": 48.8431,
            "longitude": 2.3636
          }
        },
        {
          "name": "The Louvre",
          "Categories": [
            "poetry",
            "art",
            "history",
            "museums"
          ],
          "Price": 4,
          "Location": "1st Arrondissement",
          "id": 10,
          "gem": false,
          "link": null,
          "coordinates": {
            "latitude": 48.8611,
            "longitude": 2.3380
          }
        },
        {
          "name": "Musee D'Orsay",
          "Categories": [
            "museums",
            "history",
            "architecture"
          ],
          "Price": 3,
          "Location": "1st Arrondissement",
          "id": 11,
          "gem": false,
          "link": null,
          "coordinates": {
            "latitude": 48.8606,
            "longitude": 2.3261
          }
        },
        {
          "name": "Cathedral Notre-dame De Paris",
          "Categories": [
            "history",
            "iconic sites",
            "architecture"
          ],
          "Price": 1,
          "Location": "Notre Dame",
          "id": 12,
          "gem": false,
          "link": null,
          "coordinates": {
            "latitude": 48.8529,
            "longitude": 2.3501
          }
        },
        {
          "name": "Musée de l'Armée",
          "Categories": [
            "biographies",
            "history",
            "architecture"
          ],
          "Price": 2,
          "Location": "7th Arrondissement",
          "id": 13,
          "gem": false,
          "link": null,
          "coordinates": {
            "latitude": 48.8570,
            "longitude": 2.3119
          }
        },
        {
          "name": "Eiffel Tower",
          "Categories": [
            "iconic sites",
            "photography",
            "history"
          ],
          "Price": 2,
          "Location": "Eiffel Tower",
          "id": 14,
          "gem": false,
          "link": null,
          "coordinates": {
            "latitude": 48.8583,
            "longitude": 2.2945
          }
        },
        {
          "name": "Bastille Area",
          "Categories": [
            "iconic sites",
            "photography",
            "history"
          ],
          "Price": 2,
          "Location": "Downtown",
          "id": 18,
          "gem": true,
          "link": null,
          "coordinates": {
            "latitude": 48.8583,
            "longitude": 2.2945
          }
        },
        {
          "name": "Parc des Buttes-Chaumont",
          "Categories": [
            "iconic sites",
            "photography",
            "history"
          ],
          "Price": 2,
          "Location": "Downtown",
          "id": 19,
          "gem": true,
          "link": null,
          "coordinates": {
            "latitude": 48.8583,
            "longitude": 2.2945
          }
        },
        {
          "name": "Canal Saint Martin",
          "Categories": [
            "gardening",
            "photography",
            "marketplace"
          ],
          "Price": 2,
          "Location": "Downtown",
          "id": 20,
          "gem": true,
          "link": null,
          "coordinates": {
            "latitude": 48.8583,
            "longitude": 2.2945
          }
        },
        {
          "name": "The Terrace at the Printemps Department Store",
          "Categories": [
            "food",
            "drink"
            
          ],
          "Price": 2,
          "Location": "Downtown",
          "id": 21,
          "gem": true,
          "link": null,
          "coordinates": {
            "latitude": 48.8583,
            "longitude": 2.2945
          }
        },
        {
          "name": "Palais Garnier",
          "Categories": [
            "museum"
          ],
          "Price": 2,
          "Location": "Downtown",
          "id": 22,
          "gem": true,
          "link": null,
          "coordinates": {
            "latitude": 48.8583,
            "longitude": 2.2945
          }
        }
      ],
      "Restaurants": [
        {
          "name": "Le Camion Qui Fume",
          "Categories": [
            "artisan food",
            "grab-and-go"
          ],
          "Price": 1,
          "Location": "N/A",
          "id": 15,
          "gem": true,
          "link": "https://www.davidlebovitz.com/le-camion-qui-fume-paris-hamburger-food-truck/",
          "coordinates": {
            "latitude": 48.8630,
            "longitude": 2.3149
          }
        },
        {
          "name": "Au Vieux Paris Darcole",
          "Categories": [
            "ambiance",
            "local cuisine"
          ],
          "Price": 3,
          "Location": "N/A",
          "id": 16,
          "gem": true,
          "link": "https://www.solosophie.com/best-cafe-in-paris-au-vieux-paris-darcole/",
          "website": "Solo Sophie",
          "coordinates": {
            "latitude": 48.8542,
            "longitude": 2.3503
          }
        },
        {
          "name": "La Maison du Chocolat",
          "Categories": [
            "sweets",
            "shopping"
          ],
          "Price": 3,
          "Location": "6th Arrondissement",
          "id": 17,
          "gem": false,
          "link": null,
          "coordinates": {
            "latitude": 48.8950,
            "longitude": 2.1858
          }
        }
      ]
    },
    {
      "name": "Munnar",
      "Attractions": [
        {
          "name": "Tea Estates",
          "Categories": [    
            "Nature",
            "Museums"  
          ],
          "Price": 3,
          "Location": "Mountainside",
          "id": 23,
          "gem": true,
          "link": "https://media-cdn.tripadvisor.com/media/photo-s/11/3b/9d/57/munnar-tea-estates.jpg",
          "latitude": 10.0889,
          "longitude": -77.0595
        }
        ],
      "Restaurants": [  ]
    },
    {
      "name": "Muras",
      "Attractions": [
        {
          "name": "Inca Salt Pools",
          "Categories": [           
            "Nature",
            "Museums"      
          ],
          "Price": 3,
          "Location": "Downtown",
          "id": 24,
          "gem": false,
          "link": "https://lh6.ggpht.com/-Qmi3fOKPmW8/UWP52M7mz4I/AAAAAAAAnJg/8nVNSy4Rchs/maras-salt-mine-0%25255B2%25255D.jpg?imgmax=800",
          "latitude": -13.3347,
          "longitude": 72.1579
        }
        ],
      "Restaurants": [  ]
    },
    {
      "name": "Bruselles",
      "Attractions": [
        {
          "name": "Comic Strip Route",
          "Categories": [           
            "Art"    
          ],
          "Price": 3,
          "Location": "Downtown",
          "id": 25,
          "gem": true,
          "link": "https://s3-eu-west-1.amazonaws.com/brussels-images/content/gallery/visit/article/9820_9820---LES-MURS-DE-LA-PROMENADE-BD-EN-DE%C3%8C%C2%81TAIL_sq_640.jpg",
          "latitude": 50.8503,
          "longitude": 4.3517
        }
        ],
      "Restaurants": [  ]
    },
    {
      "name": "London",
      "Attractions": [
        {
          "name": "Epping Forest",
          "Categories": [           
            "Nature",
            "Hiking"       
          ],
          "Price": 3,
          "Location": "Rural",
          "id": 27,
          "gem": true,
          "link": "https:www.visiteppingforest.org",
          "latitude": 51.7044,
          "longitude": 0.1656
        },
        {
          "name": "Leadenhall Market",
          "Categories": [           
            "Shopping",
            "Historic Sites",
            "Exotic"       
          ],
          "Price": 3,
          "Location": "Downtown",
          "id": 28,
          "gem": true,
          "link": "https://fullsuitcase.com/london-hidden-gems/",
          "latitude": 51.5128,
          "longitude": 0.0835
        }
        ],
      "Restaurants": [ 
        {
          "name": "Saint Aymes",
          "Categories": [           
            "Food"     
          ],
          "Price": 3,
          "Location": "Downtown",
          "id": 29,
          "gem": true,
          "link": "https://fullsuitcase.com/london-hidden-gems/",
          "latitude": 51.5128,
          "longitude": 0.0835
        } ]
    },
    {
      "name": "Positano",
      "Attractions": [
        {
          "name": "Sentiero degli dei Hike",
          "Categories": [           
            "Hiking",
            "Nature"       
          ],
          "Price": 3,
          "Location": "Rural",
          "id": 30,
          "gem": true,
          "link": "https://www.positano.com/en/e/il-sentiero-degli-dei",
          "latitude": 40.6281,
          "longitude": 14.4850
        }
        ],
      "Restaurants": [  ]
    }

  ]
}